{
  "trips": [
    {
      "tourist": {
        "name": "John Doe",
        "country_of_origin": "GB"
      },
      "destinations": [
        {
          "name": "Autobuska stanica, Novi Sad, Serbia",
          "latitude": 45.26515371917955,
          "longitude": 19.829721450805664
        },
        {
          "name": "Trg slobode 2, Novi Sad, Serbia",
          "latitude": 45.255230518613764,
          "longitude": 19.844988584518433
        },
        {
          "name": "Dunavska, Novi Sad, Serbia",
          "latitude": 45.25536646458419,
          "longitude": 19.851404428482056
        },
        {
          "name": "Tvrđava, Petrovaradin, Serbia",
          "latitude": 45.252209413075754,
          "longitude": 19.862111806869507
        }
      ]
    },
    {
      "tourist": {
        "name": "Petar Petrović",
        "country_of_origin": "RS"
      },
      "destinations": [
        {
          "name": "Autobuska stanica, Novi Sad, Serbia",
          "latitude": 45.26515371917955,
          "longitude": 19.829721450805664
        },
        {
          "name": "Trg slobode 2, Novi Sad, Serbia",
          "latitude": 45.255230518613764,
          "longitude": 19.844988584518433
        },
        {
          "name": "Dunavska, Novi Sad, Serbia",
          "latitude": 45.25536646458419,
          "longitude": 19.851404428482056
        },
        {
          "name": "Dunavska 18, Novi Sad, Serbia",
          "latitude": 45.256348286929715,
          "longitude": 19.851737022399902
        }
      ]
    }
  ]
}
